[
  {
    "id": "sigiriya-rock-fortress",
    "name": "Sigiriya Rock Fortress",
    "category": "Historical",
    "district": "Matale",
    "description": "An ancient rock citadel with frescoes, landscaped water gardens, mirror wall inscriptions, and panoramic views over Sri Lanka's dry zone plains.",
    "address": "Sigiriya, Central Province, Sri Lanka",
    "rating": 4.9,
    "openingHours": "7:00 AM - 5:30 PM",
    "latitude": 7.957,
    "longitude": 80.7603,
    "image": "/images/attractions/sigiriya.svg"
  },
  {
    "id": "galle-fort",
    "name": "Galle Fort",
    "category": "Historical",
    "district": "Galle",
    "description": "A UNESCO-listed coastal fort where colonial ramparts, museums, cafes, boutiques, and sunset walks meet the Indian Ocean.",
    "address": "Church Street, Galle Fort, Galle, Sri Lanka",
    "rating": 4.8,
    "openingHours": "Open 24 hours",
    "latitude": 6.0269,
    "longitude": 80.2168,
    "image": "/images/attractions/galle-fort.svg"
  },
  {
    "id": "temple-of-the-tooth",
    "name": "Temple of the Sacred Tooth Relic",
    "category": "Religious",
    "district": "Kandy",
    "description": "Sri Lanka's most revered Buddhist temple, located beside Kandy Lake and known for daily rituals, heritage architecture, and cultural pageantry.",
    "address": "Sri Dalada Veediya, Kandy, Sri Lanka",
    "rating": 4.8,
    "openingHours": "5:30 AM - 8:00 PM",
    "latitude": 7.2936,
    "longitude": 80.6413,
    "image": "/images/attractions/temple-tooth.svg"
  },
  {
    "id": "ella-nine-arch-bridge",
    "name": "Nine Arch Bridge",
    "category": "Nature",
    "district": "Badulla",
    "description": "A photogenic stone railway bridge framed by tea estates and jungle, best visited around train crossing times in Ella.",
    "address": "Gotuwala, Ella, Sri Lanka",
    "rating": 4.7,
    "openingHours": "Open 24 hours",
    "latitude": 6.8768,
    "longitude": 81.0608,
    "image": "/images/attractions/nine-arch.svg"
  },
  {
    "id": "mirissa-beach",
    "name": "Mirissa Beach",
    "category": "Beaches",
    "district": "Matara",
    "description": "A relaxed southern beach town known for surfing, whale watching, coconut hill viewpoints, and golden evening light.",
    "address": "Mirissa, Matara, Sri Lanka",
    "rating": 4.6,
    "openingHours": "Open 24 hours",
    "latitude": 5.9447,
    "longitude": 80.4592,
    "image": "/images/attractions/mirissa.svg"
  },
  {
    "id": "yala-national-park",
    "name": "Yala National Park",
    "category": "Nature",
    "district": "Hambantota",
    "description": "A famous wildlife reserve with leopards, elephants, birdlife, coastal lagoons, and safari routes through dry-zone forest.",
    "address": "Yala National Park, Sri Lanka",
    "rating": 4.7,
    "openingHours": "6:00 AM - 6:00 PM",
    "latitude": 6.3725,
    "longitude": 81.5185,
    "image": "/images/attractions/yala.svg"
  },
  {
    "id": "cinnamon-grand-colombo",
    "name": "Cinnamon Grand Colombo",
    "category": "Hotels",
    "district": "Colombo",
    "description": "A centrally located five-star hotel close to shopping, restaurants, the oceanfront promenade, and Colombo's business district.",
    "address": "77 Galle Road, Colombo 03, Sri Lanka",
    "rating": 4.6,
    "openingHours": "Open 24 hours",
    "latitude": 6.9182,
    "longitude": 79.8484,
    "image": "/images/attractions/cinnamon-grand.svg"
  },
  {
    "id": "ministry-of-crab",
    "name": "Ministry of Crab",
    "category": "Restaurants",
    "district": "Colombo",
    "description": "A celebrated seafood restaurant in the Old Dutch Hospital precinct, popular for Sri Lankan lagoon crab and lively city dining.",
    "address": "Old Dutch Hospital, Colombo 01, Sri Lanka",
    "rating": 4.5,
    "openingHours": "12:00 PM - 10:30 PM",
    "latitude": 6.9344,
    "longitude": 79.8438,
    "image": "/images/attractions/ministry-crab.svg"
  },
  {
    "id": "adams-peak",
    "name": "Adam's Peak",
    "category": "Adventure",
    "district": "Ratnapura",
    "description": "A sacred mountain climb famous for pre-dawn pilgrimages, cool hill-country air, and sunrise views from the summit.",
    "address": "Nallathanniya, Sri Pada, Sri Lanka",
    "rating": 4.8,
    "openingHours": "Best climbed overnight during pilgrimage season",
    "latitude": 6.8096,
    "longitude": 80.4994,
    "image": "/images/attractions/adams-peak.svg"
  },
  {
    "id": "dambulla-cave-temple",
    "name": "Dambulla Cave Temple",
    "category": "Religious",
    "district": "Matale",
    "description": "A hillside cave temple complex filled with Buddhist murals, statues, and sweeping views over the cultural triangle.",
    "address": "Kandy Road, Dambulla, Sri Lanka",
    "rating": 4.7,
    "openingHours": "7:00 AM - 7:00 PM",
    "latitude": 7.8567,
    "longitude": 80.6492,
    "image": "/images/attractions/dambulla.svg"
  },
  {
    "id": "sinharaja-rainforest",
    "name": "Sinharaja Forest Reserve",
    "category": "Nature",
    "district": "Ratnapura",
    "description": "A biodiverse rainforest reserve with guided trails, endemic birds, waterfalls, and dense tropical canopy.",
    "address": "Sinharaja Forest Reserve, Sri Lanka",
    "rating": 4.6,
    "openingHours": "6:30 AM - 5:00 PM",
    "latitude": 6.417,
    "longitude": 80.4583,
    "image": "/images/attractions/sinharaja.svg"
  },
  {
    "id": "arugam-bay",
    "name": "Arugam Bay",
    "category": "Beaches",
    "district": "Ampara",
    "description": "A legendary east-coast surf town with point breaks, beach cafes, lagoon trips, and a laid-back traveler scene.",
    "address": "Arugam Bay, Eastern Province, Sri Lanka",
    "rating": 4.6,
    "openingHours": "Open 24 hours",
    "latitude": 6.8404,
    "longitude": 81.8368,
    "image": "/images/attractions/arugam-bay.svg"
  },
  {
    "id": "nuwara-eliya-tea-country",
    "name": "Nuwara Eliya Tea Country",
    "category": "Cultural",
    "district": "Nuwara Eliya",
    "description": "A cool hill-country escape with tea factories, colonial-era gardens, misty lakes, and scenic drives through plantations.",
    "address": "Nuwara Eliya, Central Province, Sri Lanka",
    "rating": 4.5,
    "openingHours": "Open 24 hours",
    "latitude": 6.9497,
    "longitude": 80.7891,
    "image": "/images/attractions/nuwara-eliya.svg"
  },
  {
    "id": "hikkaduwa-coral-sanctuary",
    "name": "Hikkaduwa Coral Sanctuary",
    "category": "Beaches",
    "district": "Galle",
    "description": "A lively beach stop for snorkeling, reef viewing, turtles, surf schools, and casual oceanfront dining.",
    "address": "Hikkaduwa, Galle, Sri Lanka",
    "rating": 4.4,
    "openingHours": "7:00 AM - 6:00 PM",
    "latitude": 6.1388,
    "longitude": 80.0996,
    "image": "/images/attractions/hikkaduwa.svg"
  },
  {
    "id": "jetwing-lighthouse",
    "name": "Jetwing Lighthouse",
    "category": "Hotels",
    "district": "Galle",
    "description": "A coastal hotel designed by Geoffrey Bawa, pairing ocean views, dramatic staircases, and easy access to Galle Fort.",
    "address": "Dadella, Galle, Sri Lanka",
    "rating": 4.6,
    "openingHours": "Open 24 hours",
    "latitude": 6.0496,
    "longitude": 80.1907,
    "image": "/images/attractions/jetwing-lighthouse.svg"
  },
  {
    "id": "colombo-national-museum",
    "name": "Colombo National Museum",
    "category": "Cultural",
    "district": "Colombo",
    "description": "Sri Lanka's largest museum, with royal regalia, historical artifacts, sculpture, manuscripts, and leafy grounds near Viharamahadevi Park.",
    "address": "Sir Marcus Fernando Mawatha, Colombo 07, Sri Lanka",
    "rating": 4.5,
    "openingHours": "9:00 AM - 5:00 PM",
    "latitude": 6.9102,
    "longitude": 79.8612,
    "image": "/images/attractions/colombo-museum.svg"
  }
]
